[
  {
    "id": "Afghanistan",
    "name": "Afganistán",
    "capital": "Kabul",
    "continent": "Asia",
    "flag": "🇦🇫",
    "population": 42000000,
    "area": 652230,
    "funFact": "El buzkashi —polo jugado con la carcasa de una cabra— se originó en Afganistán y es el deporte nacional.",
    "latitude": 34.53,
    "longitude": 69.17
  },
  {
    "id": "Albania",
    "name": "Albania",
    "capital": "Tirana",
    "continent": "Europe",
    "flag": "🇦🇱",
    "population": 2800000,
    "area": 28748,
    "funFact": "Albania construyó más de 750.000 búnkeres de hormigón durante la era comunista, más por kilómetro cuadrado que cualquier otro país.",
    "latitude": 41.33,
    "longitude": 19.83
  },
  {
    "id": "Germany",
    "name": "Alemania",
    "capital": "Berlín",
    "continent": "Europe",
    "flag": "🇩🇪",
    "population": 84000000,
    "area": 357114,
    "funFact": "Alemania alberga más de 1.300 tipos distintos de cerveza y unas 1.500 variedades diferentes de pan.",
    "latitude": 52.52,
    "longitude": 13.4
  },
  {
    "id": "Andorra",
    "name": "Andorra",
    "capital": "Andorra la Vella",
    "continent": "Europe",
    "flag": "🇦🇩",
    "population": 80000,
    "area": 468,
    "funFact": "Andorra no tiene aeropuerto, ni ejército, ni impuesto sobre la renta, lo que la convierte en un destino favorito para compradores y esquiadores.",
    "latitude": 42.51,
    "longitude": 1.52
  },
  {
    "id": "Angola",
    "name": "Angola",
    "capital": "Luanda",
    "continent": "Africa",
    "flag": "🇦🇴",
    "population": 37000000,
    "area": 1246700,
    "funFact": "Las cataratas Kalandula de Angola se encuentran entre las más grandes de África por volumen de agua.",
    "latitude": -8.84,
    "longitude": 13.23
  },
  {
    "id": "Antigua and Barbuda",
    "name": "Antigua y Barbuda",
    "capital": "Saint John's",
    "continent": "Americas",
    "flag": "🇦🇬",
    "population": 100000,
    "area": 440,
    "funFact": "Antigua tiene 365 playas, una por cada día del año.",
    "latitude": 17.12,
    "longitude": -61.85
  },
  {
    "id": "Saudi Arabia",
    "name": "Arabia Saudita",
    "capital": "Riad",
    "continent": "Asia",
    "flag": "🇸🇦",
    "population": 36000000,
    "area": 2149690,
    "funFact": "Arabia Saudita es el mayor exportador de petróleo del mundo y alberga los dos lugares más sagrados del islam: La Meca y Medina.",
    "latitude": 24.69,
    "longitude": 46.72
  },
  {
    "id": "Algeria",
    "name": "Argelia",
    "capital": "Argel",
    "continent": "Africa",
    "flag": "🇩🇿",
    "population": 46000000,
    "area": 2381741,
    "funFact": "El desierto del Sahara cubre más del 80% del territorio de Argelia, convirtiéndola en el país más grande de África.",
    "latitude": 36.74,
    "longitude": 3.06
  },
  {
    "id": "Argentina",
    "name": "Argentina",
    "capital": "Buenos Aires",
    "continent": "Americas",
    "flag": "🇦🇷",
    "population": 46000000,
    "area": 2780400,
    "funFact": "La región de la Patagonia argentina alberga algunos de los bosques y glaciares más australes del mundo.",
    "latitude": -34.6,
    "longitude": -58.38
  },
  {
    "id": "Armenia",
    "name": "Armenia",
    "capital": "Ereván",
    "continent": "Asia",
    "flag": "🇦🇲",
    "population": 3000000,
    "area": 29743,
    "funFact": "Armenia alberga una de las iglesias cristianas más antiguas del mundo: la catedral de Etchmiadzin, construida en el año 301 d. C.",
    "latitude": 40.18,
    "longitude": 44.51
  },
  {
    "id": "Australia",
    "name": "Australia",
    "capital": "Canberra",
    "continent": "Oceania",
    "flag": "🇦🇺",
    "population": 26000000,
    "area": 7741220,
    "funFact": "Australia tiene más especies de serpientes venenosas que cualquier otro país del mundo.",
    "latitude": -35.28,
    "longitude": 149.13
  },
  {
    "id": "Austria",
    "name": "Austria",
    "capital": "Viena",
    "continent": "Europe",
    "flag": "🇦🇹",
    "population": 9100000,
    "area": 83871,
    "funFact": "Austria es la cuna de Mozart, Freud y Schubert, uno de los países culturalmente más productivos per cápita.",
    "latitude": 48.21,
    "longitude": 16.37
  },
  {
    "id": "Azerbaijan",
    "name": "Azerbaiyán",
    "capital": "Bakú",
    "continent": "Asia",
    "flag": "🇦🇿",
    "population": 10000000,
    "area": 86600,
    "funFact": "Azerbaiyán significa 'Tierra del Fuego'; los manantiales de gas natural han alimentado llamas eternas aquí durante miles de años.",
    "latitude": 40.41,
    "longitude": 49.87
  },
  {
    "id": "Bahamas",
    "name": "Bahamas",
    "capital": "Nasáu",
    "continent": "Americas",
    "flag": "🇧🇸",
    "population": 400000,
    "area": 13880,
    "funFact": "Las Bahamas poseen el tercer sistema de arrecifes de barrera más grande del mundo.",
    "latitude": 25.06,
    "longitude": -77.34
  },
  {
    "id": "Bangladesh",
    "name": "Bangladés",
    "capital": "Daca",
    "continent": "Asia",
    "flag": "🇧🇩",
    "population": 170000000,
    "area": 147570,
    "funFact": "Bangladés alberga los Sundarbans, el bosque de manglares más grande del mundo, compartido con India.",
    "latitude": 23.73,
    "longitude": 90.4
  },
  {
    "id": "Barbados",
    "name": "Barbados",
    "capital": "Bridgetown",
    "continent": "Americas",
    "flag": "🇧🇧",
    "population": 300000,
    "area": 430,
    "funFact": "Se cree que Barbados es el lugar de origen del ron, con la primera destilería comercial que data del siglo XVII.",
    "latitude": 13.1,
    "longitude": -59.62
  },
  {
    "id": "Bahrain",
    "name": "Baréin",
    "capital": "Manama",
    "continent": "Asia",
    "flag": "🇧🇭",
    "population": 1500000,
    "area": 760,
    "funFact": "Baréin fue el primer estado del Golfo en descubrir petróleo en 1932 y el primero en comenzar a diversificar su economía.",
    "latitude": 26.22,
    "longitude": 50.59
  },
  {
    "id": "Belgium",
    "name": "Bélgica",
    "capital": "Bruselas",
    "continent": "Europe",
    "flag": "🇧🇪",
    "population": 11600000,
    "area": 30528,
    "funFact": "Bélgica tiene más de 1.500 variedades de cerveza y la mayor concentración de chocolateros por kilómetro cuadrado del mundo.",
    "latitude": 50.85,
    "longitude": 4.35
  },
  {
    "id": "Belize",
    "name": "Belice",
    "capital": "Belmopán",
    "continent": "Americas",
    "flag": "🇧🇿",
    "population": 400000,
    "area": 22966,
    "funFact": "Belice posee el segundo arrecife de barrera más grande del mundo y el mayor sistema de cuevas de América Central.",
    "latitude": 17.25,
    "longitude": -88.77
  },
  {
    "id": "Benin",
    "name": "Benín",
    "capital": "Porto Novo",
    "continent": "Africa",
    "flag": "🇧🇯",
    "population": 13000000,
    "area": 114763,
    "funFact": "Benín es considerado el lugar de nacimiento de la religión vudú, que aún se practica ampliamente hoy en día.",
    "latitude": 6.37,
    "longitude": 2.42
  },
  {
    "id": "Belarus",
    "name": "Bielorrusia",
    "capital": "Minsk",
    "continent": "Europe",
    "flag": "🇧🇾",
    "population": 9400000,
    "area": 207600,
    "funFact": "Bielorrusia alberga el bosque de Bialowieza, uno de los últimos bosques primigenios de Europa y hogar del raro bisonte europeo.",
    "latitude": 53.9,
    "longitude": 27.57
  },
  {
    "id": "Bolivia",
    "name": "Bolivia",
    "capital": "Sucre",
    "continent": "Americas",
    "flag": "🇧🇴",
    "population": 12000000,
    "area": 1098581,
    "funFact": "Bolivia tiene dos capitales y alberga el salar más grande del mundo: el Salar de Uyuni.",
    "latitude": -19.04,
    "longitude": -65.26
  },
  {
    "id": "Bosnia and Herzegovina",
    "name": "Bosnia y Herzegovina",
    "capital": "Sarajevo",
    "continent": "Europe",
    "flag": "🇧🇦",
    "population": 3300000,
    "area": 51197,
    "funFact": "Sarajevo fue sede de los Juegos Olímpicos de Invierno de 1984 y luego soportó el asedio más largo de una capital en la guerra moderna.",
    "latitude": 43.85,
    "longitude": 18.39
  },
  {
    "id": "Botswana",
    "name": "Botsuana",
    "capital": "Gaborone",
    "continent": "Africa",
    "flag": "🇧🇼",
    "population": 2600000,
    "area": 581730,
    "funFact": "El delta del Okavango, uno de los mayores deltas interiores del mundo, inunda una cuenca desértica en Botsuana cada año.",
    "latitude": -24.65,
    "longitude": 25.91
  },
  {
    "id": "Brazil",
    "name": "Brasil",
    "capital": "Brasilia",
    "continent": "Americas",
    "flag": "🇧🇷",
    "population": 215000000,
    "area": 8515767,
    "funFact": "Brasil es el único país de América del Sur donde el portugués es el idioma oficial y alberga aproximadamente el 60% de la selva amazónica.",
    "latitude": -15.78,
    "longitude": -47.93
  },
  {
    "id": "Brunei",
    "name": "Brunéi",
    "capital": "Bandar Seri Begawan",
    "continent": "Asia",
    "flag": "🇧🇳",
    "population": 450000,
    "area": 5765,
    "funFact": "Brunéi es uno de los pocos países del mundo donde los ciudadanos no pagan impuesto sobre la renta.",
    "latitude": 4.94,
    "longitude": 114.95
  },
  {
    "id": "Bulgaria",
    "name": "Bulgaria",
    "capital": "Sofía",
    "continent": "Europe",
    "flag": "🇧🇬",
    "population": 6500000,
    "area": 110879,
    "funFact": "Bulgaria inventó el alfabeto cirílico en el siglo IX, utilizado hoy por más de 250 millones de personas en todo el mundo.",
    "latitude": 42.7,
    "longitude": 23.32
  },
  {
    "id": "Burkina Faso",
    "name": "Burkina Faso",
    "capital": "Uagadugú",
    "continent": "Africa",
    "flag": "🇧🇫",
    "population": 23000000,
    "area": 274200,
    "funFact": "El nombre 'Burkina Faso' se traduce como 'Tierra de la gente íntegra' en las lenguas mooré y dioula.",
    "latitude": 12.37,
    "longitude": -1.53
  },
  {
    "id": "Burundi",
    "name": "Burundi",
    "capital": "Gitega",
    "continent": "Africa",
    "flag": "🇧🇮",
    "population": 13000000,
    "area": 27834,
    "funFact": "Los Tambores Reales de Burundi son reconocidos por la UNESCO como Patrimonio Cultural Inmaterial.",
    "latitude": -3.43,
    "longitude": 29.93
  },
  {
    "id": "Bhutan",
    "name": "Bután",
    "capital": "Timbu",
    "continent": "Asia",
    "flag": "🇧🇹",
    "population": 800000,
    "area": 38394,
    "funFact": "Bután es el único país del mundo que mide el éxito en Felicidad Nacional Bruta en lugar del PIB.",
    "latitude": 27.47,
    "longitude": 89.64
  },
  {
    "id": "Cape Verde",
    "name": "Cabo Verde",
    "capital": "Praia",
    "continent": "Africa",
    "flag": "🇨🇻",
    "population": 600000,
    "area": 4033,
    "funFact": "Cabo Verde estaba deshabitado cuando los exploradores portugueses llegaron en 1456, convirtiéndolo en uno de los últimos lugares de la Tierra en ser poblado.",
    "latitude": 14.93,
    "longitude": -23.51
  },
  {
    "id": "Cambodia",
    "name": "Camboya",
    "capital": "Nom Pen",
    "continent": "Asia",
    "flag": "🇰🇭",
    "population": 17000000,
    "area": 181035,
    "funFact": "Angkor Wat, en Camboya, es el monumento religioso más grande del mundo y cubre unos 400 kilómetros cuadrados.",
    "latitude": 11.55,
    "longitude": 104.92
  },
  {
    "id": "Cameroon",
    "name": "Camerún",
    "capital": "Yaundé",
    "continent": "Africa",
    "flag": "🇨🇲",
    "population": 28000000,
    "area": 475442,
    "funFact": "Camerún es llamado 'África en miniatura' porque contiene casi todas las grandes zonas climáticas y de vegetación del continente.",
    "latitude": 3.87,
    "longitude": 11.52
  },
  {
    "id": "Canada",
    "name": "Canadá",
    "capital": "Ottawa",
    "continent": "Americas",
    "flag": "🇨🇦",
    "population": 38000000,
    "area": 9984670,
    "funFact": "Canadá tiene más lagos que el resto del mundo combinado, aproximadamente el 60% del agua dulce superficial del planeta.",
    "latitude": 45.42,
    "longitude": -75.7
  },
  {
    "id": "Qatar",
    "name": "Catar",
    "capital": "Doha",
    "continent": "Asia",
    "flag": "🇶🇦",
    "population": 2900000,
    "area": 11586,
    "funFact": "Catar fue el primer país árabe en albergar la Copa Mundial de Fútbol, en 2022.",
    "latitude": 25.29,
    "longitude": 51.53
  },
  {
    "id": "Chad",
    "name": "Chad",
    "capital": "Yamena",
    "continent": "Africa",
    "flag": "🇹🇩",
    "population": 18000000,
    "area": 1284000,
    "funFact": "El lago Chad se ha reducido un 90% desde la década de 1960 debido al cambio climático y al uso excesivo; antaño fue uno de los lagos más grandes de África.",
    "latitude": 12.11,
    "longitude": 15.04
  },
  {
    "id": "Chile",
    "name": "Chile",
    "capital": "Santiago",
    "continent": "Americas",
    "flag": "🇨🇱",
    "population": 19000000,
    "area": 756102,
    "funFact": "Chile es el país más largo del mundo de norte a sur, con más de 4.300 km de extensión.",
    "latitude": -33.46,
    "longitude": -70.65
  },
  {
    "id": "China",
    "name": "China",
    "capital": "Pekín",
    "continent": "Asia",
    "flag": "🇨🇳",
    "population": 1412000000,
    "area": 9596960,
    "funFact": "La Gran Muralla China se extiende por más de 21.000 km y es uno de los mayores proyectos de construcción de la historia humana.",
    "latitude": 39.91,
    "longitude": 116.39
  },
  {
    "id": "Cyprus",
    "name": "Chipre",
    "capital": "Nicosia",
    "continent": "Asia",
    "flag": "🇨🇾",
    "population": 1200000,
    "area": 9251,
    "funFact": "Chipre es el mítico lugar de nacimiento de Afrodita, la diosa griega del amor.",
    "latitude": 35.17,
    "longitude": 33.37
  },
  {
    "id": "Vatican City",
    "name": "Ciudad del Vaticano",
    "capital": "Ciudad del Vaticano",
    "continent": "Europe",
    "flag": "🇻🇦",
    "population": 800,
    "area": 0.44,
    "funFact": "La Ciudad del Vaticano es el país más pequeño del mundo, con solo 0,44 km², y es la sede de la Iglesia Católica Romana.",
    "latitude": 41.9,
    "longitude": 12.45
  },
  {
    "id": "Colombia",
    "name": "Colombia",
    "capital": "Bogotá",
    "continent": "Americas",
    "flag": "🇨🇴",
    "population": 52000000,
    "area": 1141748,
    "funFact": "Colombia es el único país de América del Sur con costas tanto en el océano Pacífico como en el mar Caribe.",
    "latitude": 4.71,
    "longitude": -74.07
  },
  {
    "id": "Comoros",
    "name": "Comoras",
    "capital": "Moroni",
    "continent": "Africa",
    "flag": "🇰🇲",
    "population": 900000,
    "area": 2235,
    "funFact": "Comoras es el mayor productor mundial de ylang-ylang, una flor utilizada en perfumes como el Chanel N.º 5.",
    "latitude": -11.7,
    "longitude": 43.26
  },
  {
    "id": "North Korea",
    "name": "Corea del Norte",
    "capital": "Pyongyang",
    "continent": "Asia",
    "flag": "🇰🇵",
    "population": 26000000,
    "area": 120538,
    "funFact": "Corea del Norte tiene una de las economías más aisladas del mundo y su propio huso horario: la Hora de Pyongyang.",
    "latitude": 39.02,
    "longitude": 125.75
  },
  {
    "id": "South Korea",
    "name": "Corea del Sur",
    "capital": "Seúl",
    "continent": "Asia",
    "flag": "🇰🇷",
    "population": 51000000,
    "area": 100210,
    "funFact": "Corea del Sur es el país más conectado del mundo, ocupando sistemáticamente el primer lugar en velocidad media de conexión a internet.",
    "latitude": 37.57,
    "longitude": 126.98
  },
  {
    "id": "Ivory Coast",
    "name": "Costa de Marfil",
    "capital": "Yamusukro",
    "continent": "Africa",
    "flag": "🇨🇮",
    "population": 28000000,
    "area": 322463,
    "funFact": "Costa de Marfil es el mayor productor mundial de cacao, aportando alrededor del 40% del total global.",
    "latitude": 6.82,
    "longitude": -5.27
  },
  {
    "id": "Costa Rica",
    "name": "Costa Rica",
    "capital": "San José",
    "continent": "Americas",
    "flag": "🇨🇷",
    "population": 5200000,
    "area": 51100,
    "funFact": "Costa Rica abolió su ejército en 1948 y destinó esos fondos a la educación y la sanidad.",
    "latitude": 9.93,
    "longitude": -84.08
  },
  {
    "id": "Croatia",
    "name": "Croacia",
    "capital": "Zagreb",
    "continent": "Europe",
    "flag": "🇭🇷",
    "population": 3900000,
    "area": 56594,
    "funFact": "Croacia tiene más de 1.000 islas a lo largo de su costa adriática, y se dice que la corbata fue inventada allí.",
    "latitude": 45.81,
    "longitude": 15.98
  },
  {
    "id": "Cuba",
    "name": "Cuba",
    "capital": "La Habana",
    "continent": "Americas",
    "flag": "🇨🇺",
    "population": 11000000,
    "area": 109884,
    "funFact": "Cuba tiene la mayor proporción de médicos por habitante del mundo y exporta servicios médicos a más de 60 países.",
    "latitude": 23.13,
    "longitude": -82.38
  },
  {
    "id": "Denmark",
    "name": "Dinamarca",
    "capital": "Copenhague",
    "continent": "Europe",
    "flag": "🇩🇰",
    "population": 5900000,
    "area": 42924,
    "funFact": "Dinamarca figura sistemáticamente entre los países más felices del mundo y fue el primero en legalizar las uniones del mismo sexo en 1989.",
    "latitude": 55.68,
    "longitude": 12.57
  },
  {
    "id": "Dominica",
    "name": "Dominica",
    "capital": "Roseau",
    "continent": "Americas",
    "flag": "🇩🇲",
    "population": 70000,
    "area": 751,
    "funFact": "Dominica es conocida como la 'Isla de la Naturaleza del Caribe' y alberga el segundo lago hirviente más grande del mundo.",
    "latitude": 15.3,
    "longitude": -61.39
  },
  {
    "id": "Ecuador",
    "name": "Ecuador",
    "capital": "Quito",
    "continent": "Americas",
    "flag": "🇪🇨",
    "population": 18000000,
    "area": 283561,
    "funFact": "Ecuador fue el primer país del mundo en otorgar derechos constitucionales a la naturaleza, en su constitución de 2008.",
    "latitude": -0.22,
    "longitude": -78.51
  },
  {
    "id": "Egypt",
    "name": "Egipto",
    "capital": "El Cairo",
    "continent": "Africa",
    "flag": "🇪🇬",
    "population": 106000000,
    "area": 1002450,
    "funFact": "Egipto alberga la única maravilla del mundo antiguo que se conserva: la Gran Pirámide de Guiza, construida hace más de 4.500 años.",
    "latitude": 30.06,
    "longitude": 31.25
  },
  {
    "id": "El Salvador",
    "name": "El Salvador",
    "capital": "San Salvador",
    "continent": "Americas",
    "flag": "🇸🇻",
    "population": 6500000,
    "area": 21041,
    "funFact": "El Salvador adoptó el Bitcoin como moneda de curso legal en 2021, convirtiéndose en el primer país del mundo en hacerlo.",
    "latitude": 13.69,
    "longitude": -89.19
  },
  {
    "id": "United Arab Emirates",
    "name": "Emiratos Árabes Unidos",
    "capital": "Abu Dabi",
    "continent": "Asia",
    "flag": "🇦🇪",
    "population": 9900000,
    "area": 83600,
    "funFact": "El Burj Khalifa de Dubái, en los EAU, es el edificio más alto del mundo con 828 metros de altura.",
    "latitude": 24.45,
    "longitude": 54.37
  },
  {
    "id": "Eritrea",
    "name": "Eritrea",
    "capital": "Asmara",
    "continent": "Africa",
    "flag": "🇪🇷",
    "population": 3500000,
    "area": 117600,
    "funFact": "La capital de Eritrea, Asmara, es conocida como 'la Roma de África' por su colección de arquitectura colonial italiana modernista.",
    "latitude": 15.34,
    "longitude": 38.93
  },
  {
    "id": "Slovakia",
    "name": "Eslovaquia",
    "capital": "Bratislava",
    "continent": "Europe",
    "flag": "🇸🇰",
    "population": 5500000,
    "area": 49035,
    "funFact": "Eslovaquia tiene la mayor densidad de castillos por kilómetro cuadrado del mundo, con más de 180 castillos y ruinas.",
    "latitude": 48.15,
    "longitude": 17.11
  },
  {
    "id": "Slovenia",
    "name": "Eslovenia",
    "capital": "Liubliana",
    "continent": "Europe",
    "flag": "🇸🇮",
    "population": 2100000,
    "area": 20273,
    "funFact": "Eslovenia fue clasificada como el país más sostenible del mundo y alberga la rueda más antigua jamás descubierta, que data del 3.150 a. C.",
    "latitude": 46.05,
    "longitude": 14.51
  },
  {
    "id": "Spain",
    "name": "España",
    "capital": "Madrid",
    "continent": "Europe",
    "flag": "🇪🇸",
    "population": 47400000,
    "area": 505990,
    "funFact": "España alberga La Tomatina, un festival anual en el que los participantes se lanzan tomates unos a otros por pura diversión.",
    "latitude": 40.42,
    "longitude": -3.7
  },
  {
    "id": "United States",
    "name": "Estados Unidos",
    "capital": "Washington D.C.",
    "continent": "Americas",
    "flag": "🇺🇸",
    "population": 335000000,
    "area": 9833517,
    "funFact": "Estados Unidos posee la constitución nacional escrita más antigua del mundo aún en vigor, ratificada en 1788.",
    "latitude": 38.9,
    "longitude": -77.04
  },
  {
    "id": "Estonia",
    "name": "Estonia",
    "capital": "Talín",
    "continent": "Europe",
    "flag": "🇪🇪",
    "population": 1300000,
    "area": 45228,
    "funFact": "Estonia es uno de los países más avanzados digitalmente del mundo: se puede votar, pagar impuestos y crear una empresa completamente en línea.",
    "latitude": 59.44,
    "longitude": 24.75
  },
  {
    "id": "Eswatini",
    "name": "Esuatini",
    "capital": "Mbabane",
    "continent": "Africa",
    "flag": "🇸🇿",
    "population": 1200000,
    "area": 17364,
    "funFact": "Esuatini es una de las últimas monarquías absolutas del mundo, donde el rey gobierna por decreto.",
    "latitude": -26.32,
    "longitude": 31.14
  },
  {
    "id": "Ethiopia",
    "name": "Etiopía",
    "capital": "Adís Abeba",
    "continent": "Africa",
    "flag": "🇪🇹",
    "population": 128000000,
    "area": 1104300,
    "funFact": "Etiopía tiene su propio calendario con 13 meses y va aproximadamente 7-8 años por detrás del calendario gregoriano.",
    "latitude": 9.02,
    "longitude": 38.75
  },
  {
    "id": "Philippines",
    "name": "Filipinas",
    "capital": "Manila",
    "continent": "Asia",
    "flag": "🇵🇭",
    "population": 115000000,
    "area": 343448,
    "funFact": "Filipinas es un archipiélago de más de 7.100 islas.",
    "latitude": 14.6,
    "longitude": 120.98
  },
  {
    "id": "Finland",
    "name": "Finlandia",
    "capital": "Helsinki",
    "continent": "Europe",
    "flag": "🇫🇮",
    "population": 5500000,
    "area": 338424,
    "funFact": "Finlandia tiene más saunas que coches: más de 3 millones de saunas para una población de 5,5 millones de personas.",
    "latitude": 60.17,
    "longitude": 24.94
  },
  {
    "id": "Fiji",
    "name": "Fiyi",
    "capital": "Suva",
    "continent": "Oceania",
    "flag": "🇫🇯",
    "population": 930000,
    "area": 18274,
    "funFact": "Fiyi está formada por 333 islas, de las cuales solo 110 están habitadas.",
    "latitude": -18.14,
    "longitude": 178.44
  },
  {
    "id": "France",
    "name": "Francia",
    "capital": "París",
    "continent": "Europe",
    "flag": "🇫🇷",
    "population": 68000000,
    "area": 551695,
    "funFact": "Francia es el país más visitado del mundo, con más de 90 millones de turistas al año.",
    "latitude": 48.86,
    "longitude": 2.35
  },
  {
    "id": "Gabon",
    "name": "Gabón",
    "capital": "Libreville",
    "continent": "Africa",
    "flag": "🇬🇦",
    "population": 2300000,
    "area": 267668,
    "funFact": "Aproximadamente el 88% de Gabón está cubierto por selva tropical, lo que lo convierte en uno de los países con más bosques del mundo.",
    "latitude": 0.39,
    "longitude": 9.45
  },
  {
    "id": "Gambia",
    "name": "Gambia",
    "capital": "Banjul",
    "continent": "Africa",
    "flag": "🇬🇲",
    "population": 2700000,
    "area": 11295,
    "funFact": "Gambia es el país más pequeño del África continental, completamente rodeado por Senegal excepto por su costa atlántica.",
    "latitude": 13.45,
    "longitude": -16.58
  },
  {
    "id": "Georgia",
    "name": "Georgia",
    "capital": "Tiflis",
    "continent": "Asia",
    "flag": "🇬🇪",
    "population": 4000000,
    "area": 69700,
    "funFact": "Georgia tiene una de las tradiciones vinícolas más antiguas del mundo, con evidencias de viticultura que se remontan a 8.000 años atrás.",
    "latitude": 41.69,
    "longitude": 44.83
  },
  {
    "id": "Ghana",
    "name": "Ghana",
    "capital": "Acra",
    "continent": "Africa",
    "flag": "🇬🇭",
    "population": 33000000,
    "area": 238533,
    "funFact": "Ghana fue el primer país del África subsahariana en lograr la independencia del dominio colonial europeo, en 1957.",
    "latitude": 5.56,
    "longitude": -0.2
  },
  {
    "id": "Grenada",
    "name": "Granada",
    "capital": "Saint George's",
    "continent": "Americas",
    "flag": "🇬🇩",
    "population": 120000,
    "area": 344,
    "funFact": "Granada es conocida como la 'Isla de las Especias' y es uno de los mayores productores mundiales de nuez moscada y macis.",
    "latitude": 12.05,
    "longitude": -61.75
  },
  {
    "id": "Greece",
    "name": "Grecia",
    "capital": "Atenas",
    "continent": "Europe",
    "flag": "🇬🇷",
    "population": 10400000,
    "area": 131957,
    "funFact": "Grecia tiene más museos arqueológicos que cualquier otro país del mundo.",
    "latitude": 37.98,
    "longitude": 23.73
  },
  {
    "id": "Guatemala",
    "name": "Guatemala",
    "capital": "Ciudad de Guatemala",
    "continent": "Americas",
    "flag": "🇬🇹",
    "population": 18000000,
    "area": 108889,
    "funFact": "El lago Atitlán, en Guatemala, es considerado uno de los lagos más hermosos del mundo.",
    "latitude": 14.64,
    "longitude": -90.52
  },
  {
    "id": "Guinea",
    "name": "Guinea",
    "capital": "Conakri",
    "continent": "Africa",
    "flag": "🇬🇳",
    "population": 14000000,
    "area": 245857,
    "funFact": "Guinea contiene aproximadamente dos tercios de las reservas mundiales conocidas de bauxita, el mineral principal para producir aluminio.",
    "latitude": 9.54,
    "longitude": -13.68
  },
  {
    "id": "Equatorial Guinea",
    "name": "Guinea Ecuatorial",
    "capital": "Malabo",
    "continent": "Africa",
    "flag": "🇬🇶",
    "population": 1500000,
    "area": 28051,
    "funFact": "Guinea Ecuatorial es el único país de África donde el español es lengua oficial.",
    "latitude": 3.75,
    "longitude": 8.78
  },
  {
    "id": "Guinea-Bissau",
    "name": "Guinea-Bisáu",
    "capital": "Bisáu",
    "continent": "Africa",
    "flag": "🇬🇼",
    "population": 2100000,
    "area": 36125,
    "funFact": "El archipiélago de los Bijagós es uno de los pocos lugares del mundo donde los hipopótamos viven en un entorno marino de agua salada.",
    "latitude": 11.86,
    "longitude": -15.6
  },
  {
    "id": "Guyana",
    "name": "Guyana",
    "capital": "Georgetown",
    "continent": "Americas",
    "flag": "🇬🇾",
    "population": 800000,
    "area": 214969,
    "funFact": "Guyana es el único país de habla inglesa de América del Sur.",
    "latitude": 6.8,
    "longitude": -58.16
  },
  {
    "id": "Haiti",
    "name": "Haití",
    "capital": "Puerto Príncipe",
    "continent": "Americas",
    "flag": "🇭🇹",
    "population": 12000000,
    "area": 27750,
    "funFact": "Haití fue la primera república negra del mundo, que declaró su independencia en 1804 tras una exitosa revolución de esclavos.",
    "latitude": 18.54,
    "longitude": -72.34
  },
  {
    "id": "Honduras",
    "name": "Honduras",
    "capital": "Tegucigalpa",
    "continent": "Americas",
    "flag": "🇭🇳",
    "population": 10000000,
    "area": 112492,
    "funFact": "Honduras alberga la antigua ciudad maya de Copán, famosa por sus intrincadas esculturas de piedra y su escalinata jeroglífica.",
    "latitude": 14.1,
    "longitude": -87.22
  },
  {
    "id": "Hungary",
    "name": "Hungría",
    "capital": "Budapest",
    "continent": "Europe",
    "flag": "🇭🇺",
    "population": 9700000,
    "area": 93028,
    "funFact": "Hungría tiene el lago termal más grande del mundo, el lago Hévíz, que se mantiene lo suficientemente cálido para nadar durante todo el año.",
    "latitude": 47.5,
    "longitude": 19.04
  },
  {
    "id": "India",
    "name": "India",
    "capital": "Nueva Delhi",
    "continent": "Asia",
    "flag": "🇮🇳",
    "population": 1428000000,
    "area": 3287263,
    "funFact": "India tiene el mayor número de vegetarianos del mundo y es el mayor productor de leche del planeta.",
    "latitude": 28.61,
    "longitude": 77.21
  },
  {
    "id": "Indonesia",
    "name": "Indonesia",
    "capital": "Yakarta",
    "continent": "Asia",
    "flag": "🇮🇩",
    "population": 277000000,
    "area": 1904569,
    "funFact": "Indonesia es un archipiélago de más de 17.000 islas, lo que la convierte en el mayor país insular del mundo.",
    "latitude": -6.21,
    "longitude": 106.85
  },
  {
    "id": "Iraq",
    "name": "Irak",
    "capital": "Bagdad",
    "continent": "Asia",
    "flag": "🇮🇶",
    "population": 43000000,
    "area": 438317,
    "funFact": "Irak se llamaba antiguamente Mesopotamia, 'tierra entre dos ríos', y es considerado la cuna de la civilización.",
    "latitude": 33.34,
    "longitude": 44.4
  },
  {
    "id": "Iran",
    "name": "Irán",
    "capital": "Teherán",
    "continent": "Asia",
    "flag": "🇮🇷",
    "population": 87000000,
    "area": 1648195,
    "funFact": "Irán (Persia) es el hogar de una de las civilizaciones continuas más antiguas del mundo, con más de 7.000 años de historia.",
    "latitude": 35.69,
    "longitude": 51.42
  },
  {
    "id": "Ireland",
    "name": "Irlanda",
    "capital": "Dublín",
    "continent": "Europe",
    "flag": "🇮🇪",
    "population": 5100000,
    "area": 70273,
    "funFact": "Irlanda es el único país del mundo cuyo símbolo nacional es un instrumento musical: el arpa.",
    "latitude": 53.33,
    "longitude": -6.25
  },
  {
    "id": "Iceland",
    "name": "Islandia",
    "capital": "Reikiavik",
    "continent": "Europe",
    "flag": "🇮🇸",
    "population": 370000,
    "area": 103000,
    "funFact": "Islandia no tiene mosquitos y es uno de los pocos países donde se pueden ver las auroras boreales de forma fiable.",
    "latitude": 64.14,
    "longitude": -21.9
  },
  {
    "id": "Marshall Islands",
    "name": "Islas Marshall",
    "capital": "Majuro",
    "continent": "Oceania",
    "flag": "🇲🇭",
    "population": 40000,
    "area": 181,
    "funFact": "Las Islas Marshall fueron el escenario de 67 pruebas nucleares estadounidenses tras la Segunda Guerra Mundial, y el atolón de Bikini es ahora Patrimonio de la Humanidad de la UNESCO.",
    "latitude": 7.1,
    "longitude": 171.38
  },
  {
    "id": "Solomon Islands",
    "name": "Islas Salomón",
    "capital": "Honiara",
    "continent": "Oceania",
    "flag": "🇸🇧",
    "population": 740000,
    "area": 28896,
    "funFact": "La batalla de Guadalcanal, una de las más significativas del Pacífico en la Segunda Guerra Mundial, se libró en las Islas Salomón.",
    "latitude": -9.43,
    "longitude": 160.05
  },
  {
    "id": "Israel",
    "name": "Israel",
    "capital": "Jerusalén",
    "continent": "Asia",
    "flag": "🇮🇱",
    "population": 9700000,
    "area": 20770,
    "funFact": "Israel es el único país del mundo que ha revivido una lengua antigua como idioma oficial nacional: el hebreo.",
    "latitude": 31.77,
    "longitude": 35.22
  },
  {
    "id": "Italy",
    "name": "Italia",
    "capital": "Roma",
    "continent": "Europe",
    "flag": "🇮🇹",
    "population": 59000000,
    "area": 301340,
    "funFact": "Italia alberga la universidad más antigua del mundo: la Universidad de Bolonia, fundada en 1088.",
    "latitude": 41.9,
    "longitude": 12.5
  },
  {
    "id": "Jamaica",
    "name": "Jamaica",
    "capital": "Kingston",
    "continent": "Americas",
    "flag": "🇯🇲",
    "population": 2900000,
    "area": 10991,
    "funFact": "Jamaica le dio al mundo el reggae y es el lugar de nacimiento de Bob Marley.",
    "latitude": 18.0,
    "longitude": -76.79
  },
  {
    "id": "Japan",
    "name": "Japón",
    "capital": "Tokio",
    "continent": "Asia",
    "flag": "🇯🇵",
    "population": 123000000,
    "area": 377975,
    "funFact": "Japón tiene más máquinas expendedoras per cápita que cualquier otro país, aproximadamente una por cada 23 personas.",
    "latitude": 35.68,
    "longitude": 139.69
  },
  {
    "id": "Jordan",
    "name": "Jordania",
    "capital": "Amán",
    "continent": "Asia",
    "flag": "🇯🇴",
    "population": 10000000,
    "area": 89342,
    "funFact": "La antigua ciudad de Petra, tallada en roca de color rosa rojizo, es uno de los yacimientos arqueológicos más reconocibles del mundo.",
    "latitude": 31.95,
    "longitude": 35.93
  },
  {
    "id": "Kazakhstan",
    "name": "Kazajistán",
    "capital": "Astana",
    "continent": "Asia",
    "flag": "🇰🇿",
    "population": 19000000,
    "area": 2724900,
    "funFact": "Kazajistán es el mayor país sin salida al mar del mundo, más grande que todo el continente de Europa Occidental.",
    "latitude": 51.18,
    "longitude": 71.45
  },
  {
    "id": "Kenya",
    "name": "Kenia",
    "capital": "Nairobi",
    "continent": "Africa",
    "flag": "🇰🇪",
    "population": 57000000,
    "area": 580367,
    "funFact": "El Gran Valle del Rift de Kenia es uno de los yacimientos arqueológicos más importantes del mundo para los antepasados humanos tempranos.",
    "latitude": -1.29,
    "longitude": 36.82
  },
  {
    "id": "Kyrgyzstan",
    "name": "Kirguistán",
    "capital": "Biskek",
    "continent": "Asia",
    "flag": "🇰🇬",
    "population": 6800000,
    "area": 199951,
    "funFact": "Aproximadamente el 90% de Kirguistán está cubierto por montañas y alberga uno de los mayores bosques de nogales del mundo.",
    "latitude": 42.87,
    "longitude": 74.59
  },
  {
    "id": "Kiribati",
    "name": "Kiribati",
    "capital": "South Tarawa",
    "continent": "Oceania",
    "flag": "🇰🇮",
    "population": 120000,
    "area": 811,
    "funFact": "Kiribati es el único país del mundo que abarca los cuatro hemisferios: norte, sur, este y oeste.",
    "latitude": 1.33,
    "longitude": 172.98
  },
  {
    "id": "Kosovo",
    "name": "Kosovo",
    "capital": "Pristina",
    "continent": "Europe",
    "flag": "🇽🇰",
    "population": 1800000,
    "area": 10887,
    "funFact": "Kosovo declaró su independencia de Serbia en 2008, convirtiéndose en uno de los países reconocidos más jóvenes del mundo.",
    "latitude": 42.67,
    "longitude": 21.17
  },
  {
    "id": "Kuwait",
    "name": "Kuwait",
    "capital": "Ciudad de Kuwait",
    "continent": "Asia",
    "flag": "🇰🇼",
    "population": 4400000,
    "area": 17818,
    "funFact": "Kuwait no tiene ríos; toda el agua potable proviene de la desalinización del agua de mar del golfo Pérsico.",
    "latitude": 29.37,
    "longitude": 47.98
  },
  {
    "id": "Laos",
    "name": "Laos",
    "capital": "Vientián",
    "continent": "Asia",
    "flag": "🇱🇦",
    "population": 7400000,
    "area": 236800,
    "funFact": "Laos es el país más bombardeado per cápita de la historia, debido a los restos de municiones sin explotar de la guerra de Vietnam.",
    "latitude": 17.97,
    "longitude": 102.63
  },
  {
    "id": "Lesotho",
    "name": "Lesoto",
    "capital": "Maseru",
    "continent": "Africa",
    "flag": "🇱🇸",
    "population": 2200000,
    "area": 30355,
    "funFact": "Lesoto es el único país del mundo que se encuentra completamente por encima de los 1.000 metros de altitud.",
    "latitude": -29.32,
    "longitude": 27.48
  },
  {
    "id": "Latvia",
    "name": "Letonia",
    "capital": "Riga",
    "continent": "Europe",
    "flag": "🇱🇻",
    "population": 1800000,
    "area": 64589,
    "funFact": "Letonia es uno de los países más verdes de Europa, con aproximadamente el 56% de su territorio cubierto de bosques.",
    "latitude": 56.95,
    "longitude": 24.11
  },
  {
    "id": "Lebanon",
    "name": "Líbano",
    "capital": "Beirut",
    "continent": "Asia",
    "flag": "🇱🇧",
    "population": 5500000,
    "area": 10400,
    "funFact": "Líbano tiene 18 comunidades religiosas reconocidas oficialmente, más que casi cualquier otro país del mundo.",
    "latitude": 33.89,
    "longitude": 35.5
  },
  {
    "id": "Liberia",
    "name": "Liberia",
    "capital": "Monrovia",
    "continent": "Africa",
    "flag": "🇱🇷",
    "population": 5400000,
    "area": 111369,
    "funFact": "Liberia fue la primera república de África, fundada en 1847 por afroamericanos antiguamente esclavizados.",
    "latitude": 6.3,
    "longitude": -10.8
  },
  {
    "id": "Libya",
    "name": "Libia",
    "capital": "Trípoli",
    "continent": "Africa",
    "flag": "🇱🇾",
    "population": 7400000,
    "area": 1759540,
    "funFact": "Libia posee las mayores reservas probadas de petróleo de África.",
    "latitude": 32.9,
    "longitude": 13.18
  },
  {
    "id": "Liechtenstein",
    "name": "Liechtenstein",
    "capital": "Vaduz",
    "continent": "Europe",
    "flag": "🇱🇮",
    "population": 40000,
    "area": 160,
    "funFact": "Liechtenstein es el sexto país más pequeño del mundo y está doblemente enclavado, rodeado completamente por países sin salida al mar.",
    "latitude": 47.14,
    "longitude": 9.52
  },
  {
    "id": "Lithuania",
    "name": "Lituania",
    "capital": "Vilna",
    "continent": "Europe",
    "flag": "🇱🇹",
    "population": 2800000,
    "area": 65300,
    "funFact": "Lituania fue el último país de Europa en convertirse al cristianismo, haciéndolo solo en 1387.",
    "latitude": 54.69,
    "longitude": 25.28
  },
  {
    "id": "Luxembourg",
    "name": "Luxemburgo",
    "capital": "Ciudad de Luxemburgo",
    "continent": "Europe",
    "flag": "🇱🇺",
    "population": 670000,
    "area": 2586,
    "funFact": "Luxemburgo tiene el mayor PIB per cápita del mundo y alberga muchas instituciones de la Unión Europea.",
    "latitude": 49.61,
    "longitude": 6.13
  },
  {
    "id": "North Macedonia",
    "name": "Macedonia del Norte",
    "capital": "Skopie",
    "continent": "Europe",
    "flag": "🇲🇰",
    "population": 2100000,
    "area": 25713,
    "funFact": "El lago Ohrid es uno de los lagos más antiguos y profundos de Europa, con una antigüedad estimada de más de 3 millones de años.",
    "latitude": 42.0,
    "longitude": 21.43
  },
  {
    "id": "Madagascar",
    "name": "Madagascar",
    "capital": "Antananarivo",
    "continent": "Africa",
    "flag": "🇲🇬",
    "population": 29000000,
    "area": 587041,
    "funFact": "Aproximadamente el 90% de la fauna silvestre de Madagascar no se encuentra en ningún otro lugar del planeta, incluidas todas sus especies de lemures.",
    "latitude": -18.91,
    "longitude": 47.54
  },
  {
    "id": "Malaysia",
    "name": "Malasia",
    "capital": "Kuala Lumpur",
    "continent": "Asia",
    "flag": "🇲🇾",
    "population": 33000000,
    "area": 329847,
    "funFact": "Malasia alberga la selva tropical más antigua del mundo, con una antigüedad estimada de 130 millones de años.",
    "latitude": 3.14,
    "longitude": 101.69
  },
  {
    "id": "Malawi",
    "name": "Malaui",
    "capital": "Lilongüe",
    "continent": "Africa",
    "flag": "🇲🇼",
    "population": 20000000,
    "area": 118484,
    "funFact": "El lago Malawi contiene más especies de peces que cualquier otro lago del mundo.",
    "latitude": -13.97,
    "longitude": 33.79
  },
  {
    "id": "Maldives",
    "name": "Maldivas",
    "capital": "Malé",
    "continent": "Asia",
    "flag": "🇲🇻",
    "population": 520000,
    "area": 298,
    "funFact": "Las Maldivas son el país más llano de la Tierra, con una altitud media de solo 1,5 metros sobre el nivel del mar.",
    "latitude": 4.18,
    "longitude": 73.51
  },
  {
    "id": "Mali",
    "name": "Malí",
    "capital": "Bamako",
    "continent": "Africa",
    "flag": "🇲🇱",
    "population": 23000000,
    "area": 1240192,
    "funFact": "La antigua ciudad de Tombuctú fue antaño un importante centro de erudición islámica con 180 escuelas coránicas.",
    "latitude": 12.65,
    "longitude": -8.0
  },
  {
    "id": "Malta",
    "name": "Malta",
    "capital": "La Valeta",
    "continent": "Europe",
    "flag": "🇲🇹",
    "population": 530000,
    "area": 316,
    "funFact": "Malta alberga las estructuras independientes más antiguas del mundo: los templos de Ggantija, construidos alrededor del 3.600 a. C.",
    "latitude": 35.9,
    "longitude": 14.51
  },
  {
    "id": "Morocco",
    "name": "Marruecos",
    "capital": "Rabat",
    "continent": "Africa",
    "flag": "🇲🇦",
    "population": 37000000,
    "area": 446550,
    "funFact": "La Universidad de al-Qarawiyyin en Fez, fundada en 859 d. C., es la universidad en funcionamiento continuo más antigua del mundo.",
    "latitude": 34.02,
    "longitude": -6.84
  },
  {
    "id": "Mauritius",
    "name": "Mauricio",
    "capital": "Port Louis",
    "continent": "Africa",
    "flag": "🇲🇺",
    "population": 1300000,
    "area": 2040,
    "funFact": "El dodo era originario de Mauricio y se extinguió en el siglo XVII, menos de 100 años después de la llegada de los humanos.",
    "latitude": -20.16,
    "longitude": 57.5
  },
  {
    "id": "Mauritania",
    "name": "Mauritania",
    "capital": "Nuakchot",
    "continent": "Africa",
    "flag": "🇲🇷",
    "population": 4700000,
    "area": 1030700,
    "funFact": "Mauritania tiene uno de los trenes más largos del mundo, el tren de mineral de hierro, que puede extenderse hasta 2,5 km.",
    "latitude": 18.08,
    "longitude": -15.97
  },
  {
    "id": "Mexico",
    "name": "México",
    "capital": "Ciudad de México",
    "continent": "Americas",
    "flag": "🇲🇽",
    "population": 130000000,
    "area": 1964375,
    "funFact": "Ciudad de México está construida sobre las ruinas de la antigua capital azteca Tenochtitlán y se hunde varios centímetros cada año.",
    "latitude": 19.43,
    "longitude": -99.13
  },
  {
    "id": "Micronesia",
    "name": "Micronesia",
    "capital": "Palikir",
    "continent": "Oceania",
    "flag": "🇫🇲",
    "population": 120000,
    "area": 702,
    "funFact": "La isla de Yap, en Micronesia, utiliza enormes discos de piedra llamados rai como moneda tradicional; algunos pesan hasta 4 toneladas.",
    "latitude": 6.92,
    "longitude": 158.16
  },
  {
    "id": "Moldova",
    "name": "Moldavia",
    "capital": "Chisináu",
    "continent": "Europe",
    "flag": "🇲🇩",
    "population": 2600000,
    "area": 33846,
    "funFact": "Moldavia alberga Milestii Mici, que posee la mayor colección de vinos del mundo con más de 1,5 millones de botellas.",
    "latitude": 47.01,
    "longitude": 28.86
  },
  {
    "id": "Monaco",
    "name": "Mónaco",
    "capital": "Mónaco",
    "continent": "Europe",
    "flag": "🇲🇨",
    "population": 40000,
    "area": 2,
    "funFact": "Mónaco es el segundo país más pequeño del mundo y el estado soberano más densamente poblado de la Tierra.",
    "latitude": 43.73,
    "longitude": 7.42
  },
  {
    "id": "Mongolia",
    "name": "Mongolia",
    "capital": "Ulán Bator",
    "continent": "Asia",
    "flag": "🇲🇳",
    "population": 3400000,
    "area": 1564110,
    "funFact": "Mongolia tiene la densidad de población más baja de cualquier país soberano del mundo.",
    "latitude": 47.91,
    "longitude": 106.88
  },
  {
    "id": "Montenegro",
    "name": "Montenegro",
    "capital": "Podgorica",
    "continent": "Europe",
    "flag": "🇲🇪",
    "population": 620000,
    "area": 13812,
    "funFact": "El nombre Montenegro significa 'Montaña Negra' en veneciano, en referencia al aspecto oscuro del monte Lovćen.",
    "latitude": 42.44,
    "longitude": 19.26
  },
  {
    "id": "Mozambique",
    "name": "Mozambique",
    "capital": "Maputo",
    "continent": "Africa",
    "flag": "🇲🇿",
    "population": 33000000,
    "area": 801590,
    "funFact": "La bandera de Mozambique es la única bandera nacional del mundo que incorpora un arma moderna: un fusil AK-47.",
    "latitude": -25.97,
    "longitude": 32.59
  },
  {
    "id": "Myanmar",
    "name": "Myanmar",
    "capital": "Naypyidaw",
    "continent": "Asia",
    "flag": "🇲🇲",
    "population": 54000000,
    "area": 676578,
    "funFact": "Myanmar tiene más pagodas budistas que cualquier otro país, más de 1.000 solo en Bagán.",
    "latitude": 19.76,
    "longitude": 96.07
  },
  {
    "id": "Namibia",
    "name": "Namibia",
    "capital": "Windhoek",
    "continent": "Africa",
    "flag": "🇳🇦",
    "population": 2800000,
    "area": 824292,
    "funFact": "El desierto de Namib se cree que es el desierto más antiguo del mundo, con una antigüedad estimada de entre 55 y 80 millones de años.",
    "latitude": -22.56,
    "longitude": 17.08
  },
  {
    "id": "Nauru",
    "name": "Nauru",
    "capital": "Yaren",
    "continent": "Oceania",
    "flag": "🇳🇷",
    "population": 11000,
    "area": 21,
    "funFact": "Nauru es la nación insular más pequeña del mundo y el tercer país más pequeño por superficie.",
    "latitude": -0.55,
    "longitude": 166.92
  },
  {
    "id": "Nepal",
    "name": "Nepal",
    "capital": "Katmandú",
    "continent": "Asia",
    "flag": "🇳🇵",
    "population": 30000000,
    "area": 147181,
    "funFact": "Nepal alberga ocho de las diez montañas más altas del mundo, incluido el Everest.",
    "latitude": 27.71,
    "longitude": 85.31
  },
  {
    "id": "Nicaragua",
    "name": "Nicaragua",
    "capital": "Managua",
    "continent": "Americas",
    "flag": "🇳🇮",
    "population": 7000000,
    "area": 130375,
    "funFact": "El lago de Nicaragua es el único lago de agua dulce del mundo que contiene tiburones.",
    "latitude": 12.14,
    "longitude": -86.28
  },
  {
    "id": "Niger",
    "name": "Níger",
    "capital": "Niamey",
    "continent": "Africa",
    "flag": "🇳🇪",
    "population": 26000000,
    "area": 1267000,
    "funFact": "Las montañas de Aïr, en Níger, contienen arte rupestre y grabados de más de 6.000 años de antigüedad.",
    "latitude": 13.51,
    "longitude": 2.11
  },
  {
    "id": "Nigeria",
    "name": "Nigeria",
    "capital": "Abuja",
    "continent": "Africa",
    "flag": "🇳🇬",
    "population": 224000000,
    "area": 923768,
    "funFact": "Nigeria tiene la industria cinematográfica más grande de África (Nollywood), que produce más películas anuales que Hollywood.",
    "latitude": 9.07,
    "longitude": 7.4
  },
  {
    "id": "Norway",
    "name": "Noruega",
    "capital": "Oslo",
    "continent": "Europe",
    "flag": "🇳🇴",
    "population": 5500000,
    "area": 385207,
    "funFact": "Noruega introdujo el concepto del sushi de salmón en Japón en la década de 1980, revolucionando la cultura del sushi a nivel mundial.",
    "latitude": 59.91,
    "longitude": 10.75
  },
  {
    "id": "New Zealand",
    "name": "Nueva Zelanda",
    "capital": "Wellington",
    "continent": "Oceania",
    "flag": "🇳🇿",
    "population": 5100000,
    "area": 270467,
    "funFact": "Nueva Zelanda fue el primer país en conceder a las mujeres el derecho al voto, en 1893.",
    "latitude": -41.29,
    "longitude": 174.78
  },
  {
    "id": "Oman",
    "name": "Omán",
    "capital": "Mascate",
    "continent": "Asia",
    "flag": "🇴🇲",
    "population": 4500000,
    "area": 309500,
    "funFact": "El desierto de Wahiba Sands, en Omán, alberga más de 150 especies de animales, más que el Sáhara, que es 1.000 veces más grande.",
    "latitude": 23.58,
    "longitude": 58.41
  },
  {
    "id": "Netherlands",
    "name": "Países Bajos",
    "capital": "Ámsterdam",
    "continent": "Europe",
    "flag": "🇳🇱",
    "population": 17900000,
    "area": 41543,
    "funFact": "Los Países Bajos tienen más bicicletas que personas, unos 23 millones de bicis para 17 millones de habitantes.",
    "latitude": 52.37,
    "longitude": 4.9
  },
  {
    "id": "Pakistan",
    "name": "Pakistán",
    "capital": "Islamabad",
    "continent": "Asia",
    "flag": "🇵🇰",
    "population": 231000000,
    "area": 881913,
    "funFact": "Pakistán alberga el K2, la segunda montaña más alta del mundo, considerada técnicamente más desafiante que el Everest.",
    "latitude": 33.72,
    "longitude": 73.06
  },
  {
    "id": "Palau",
    "name": "Palaos",
    "capital": "Ngerulmud",
    "continent": "Oceania",
    "flag": "🇵🇼",
    "population": 18000,
    "area": 459,
    "funFact": "Palaos fue el primer país del mundo en crear un santuario de tiburones en 2009, prohibiendo la pesca comercial de tiburones.",
    "latitude": 7.5,
    "longitude": 134.62
  },
  {
    "id": "Palestine",
    "name": "Palestina",
    "capital": "Ramala",
    "continent": "Asia",
    "flag": "🇵🇸",
    "population": 5400000,
    "area": 6220,
    "funFact": "El mar Muerto, fronterizo con Palestina y Jordania, es el punto más bajo de la superficie terrestre, a unos 430 metros bajo el nivel del mar.",
    "latitude": 31.9,
    "longitude": 35.21
  },
  {
    "id": "Panama",
    "name": "Panamá",
    "capital": "Ciudad de Panamá",
    "continent": "Americas",
    "flag": "🇵🇦",
    "population": 4400000,
    "area": 75417,
    "funFact": "El canal de Panamá, inaugurado en 1914, conecta los océanos Atlántico y Pacífico y es una de las mayores hazañas de ingeniería de la historia.",
    "latitude": 8.99,
    "longitude": -79.52
  },
  {
    "id": "Papua New Guinea",
    "name": "Papúa Nueva Guinea",
    "capital": "Port Moresby",
    "continent": "Oceania",
    "flag": "🇵🇬",
    "population": 10000000,
    "area": 462840,
    "funFact": "Papúa Nueva Guinea es el país lingüísticamente más diverso del mundo, con más de 800 idiomas hablados.",
    "latitude": -9.44,
    "longitude": 147.18
  },
  {
    "id": "Paraguay",
    "name": "Paraguay",
    "capital": "Asunción",
    "continent": "Americas",
    "flag": "🇵🇾",
    "population": 7500000,
    "area": 406752,
    "funFact": "Paraguay es uno de los pocos países con dos idiomas oficiales ampliamente hablados: el español y el guaraní.",
    "latitude": -25.29,
    "longitude": -57.65
  },
  {
    "id": "Peru",
    "name": "Perú",
    "capital": "Lima",
    "continent": "Americas",
    "flag": "🇵🇪",
    "population": 33000000,
    "area": 1285216,
    "funFact": "La antigua ciudadela inca de Machu Picchu fue construida en el siglo XV y era desconocida para el mundo exterior hasta 1911.",
    "latitude": -12.05,
    "longitude": -77.05
  },
  {
    "id": "Poland",
    "name": "Polonia",
    "capital": "Varsovia",
    "continent": "Europe",
    "flag": "🇵🇱",
    "population": 37600000,
    "area": 312696,
    "funFact": "Polonia alberga el castillo más grande del mundo por superficie, el castillo de Malbork, construido por los Caballeros Teutónicos en el siglo XIII.",
    "latitude": 52.23,
    "longitude": 21.01
  },
  {
    "id": "Portugal",
    "name": "Portugal",
    "capital": "Lisboa",
    "continent": "Europe",
    "flag": "🇵🇹",
    "population": 10200000,
    "area": 92212,
    "funFact": "Portugal es el mayor productor mundial de corcho, aportando aproximadamente el 50% del total global.",
    "latitude": 38.72,
    "longitude": -9.14
  },
  {
    "id": "United Kingdom",
    "name": "Reino Unido",
    "capital": "Londres",
    "continent": "Europe",
    "flag": "🇬🇧",
    "population": 68000000,
    "area": 242495,
    "funFact": "El Reino Unido inventó la World Wide Web, el teléfono, la televisión y el motor de vapor.",
    "latitude": 51.51,
    "longitude": -0.13
  },
  {
    "id": "Central African Republic",
    "name": "República Centroafricana",
    "capital": "Bangui",
    "continent": "Africa",
    "flag": "🇨🇫",
    "population": 5600000,
    "area": 622984,
    "funFact": "La selva tropical de Dzanga-Sangha es uno de los últimos refugios para los elefantes de bosque y los gorilas de llanura occidental.",
    "latitude": 4.36,
    "longitude": 18.56
  },
  {
    "id": "Czech Republic",
    "name": "República Checa",
    "capital": "Praga",
    "continent": "Europe",
    "flag": "🇨🇿",
    "population": 10900000,
    "area": 78866,
    "funFact": "La República Checa tiene el mayor consumo de cerveza per cápita del mundo.",
    "latitude": 50.09,
    "longitude": 14.42
  },
  {
    "id": "Republic of Congo",
    "name": "República del Congo",
    "capital": "Brazzaville",
    "continent": "Africa",
    "flag": "🇨🇬",
    "population": 6000000,
    "area": 342000,
    "funFact": "El Congo es el hogar del bonobo, uno de nuestros parientes vivos más cercanos, que no se encuentra en ningún otro lugar de la Tierra.",
    "latitude": -4.27,
    "longitude": 15.28
  },
  {
    "id": "Democratic Republic of Congo",
    "name": "República Democrática del Congo",
    "capital": "Kinsasa",
    "continent": "Africa",
    "flag": "🇨🇩",
    "population": 102000000,
    "area": 2344858,
    "funFact": "El río Congo es el río más profundo del mundo, con profundidades de más de 220 metros.",
    "latitude": -4.32,
    "longitude": 15.32
  },
  {
    "id": "Dominican Republic",
    "name": "República Dominicana",
    "capital": "Santo Domingo",
    "continent": "Americas",
    "flag": "🇩🇴",
    "population": 11000000,
    "area": 48671,
    "funFact": "La República Dominicana alberga el Pico Duarte, el punto más alto de todo el Caribe, con 3.098 metros.",
    "latitude": 18.48,
    "longitude": -69.9
  },
  {
    "id": "Rwanda",
    "name": "Ruanda",
    "capital": "Kigali",
    "continent": "Africa",
    "flag": "🇷🇼",
    "population": 14000000,
    "area": 26338,
    "funFact": "Ruanda prohibió las bolsas de plástico en 2008 y celebra jornadas mensuales de limpieza comunitaria, convirtiéndola en uno de los países más limpios de África.",
    "latitude": -1.94,
    "longitude": 30.06
  },
  {
    "id": "Romania",
    "name": "Rumanía",
    "capital": "Bucarest",
    "continent": "Europe",
    "flag": "🇷🇴",
    "population": 19000000,
    "area": 238397,
    "funFact": "Rumanía alberga el delta del Danubio, uno de los deltas fluviales mejor conservados de Europa y Patrimonio de la Humanidad de la UNESCO.",
    "latitude": 44.43,
    "longitude": 26.1
  },
  {
    "id": "Russia",
    "name": "Rusia",
    "capital": "Moscú",
    "continent": "Europe",
    "flag": "🇷🇺",
    "population": 144000000,
    "area": 17098242,
    "funFact": "Rusia es el país más grande del mundo por superficie, abarcando 11 zonas horarias y dos continentes.",
    "latitude": 55.75,
    "longitude": 37.62
  },
  {
    "id": "Samoa",
    "name": "Samoa",
    "capital": "Apia",
    "continent": "Oceania",
    "flag": "🇼🇸",
    "population": 220000,
    "area": 2842,
    "funFact": "Samoa cambió el lado de la carretera por el que circula en 2009, convirtiéndose en el primer país en hacerlo en décadas.",
    "latitude": -13.83,
    "longitude": -171.77
  },
  {
    "id": "Saint Kitts and Nevis",
    "name": "San Cristóbal y Nieves",
    "capital": "Basseterre",
    "continent": "Americas",
    "flag": "🇰🇳",
    "population": 50000,
    "area": 261,
    "funFact": "Nevis se cree que es el lugar de nacimiento de Alexander Hamilton, uno de los padres fundadores de los Estados Unidos.",
    "latitude": 17.3,
    "longitude": -62.72
  },
  {
    "id": "San Marino",
    "name": "San Marino",
    "capital": "San Marino",
    "continent": "Europe",
    "flag": "🇸🇲",
    "population": 34000,
    "area": 61,
    "funFact": "San Marino afirma ser la república más antigua del mundo, fundada en el año 301 d. C., más antigua que la mayoría de las naciones europeas.",
    "latitude": 43.94,
    "longitude": 12.46
  },
  {
    "id": "Saint Vincent and the Grenadines",
    "name": "San Vicente y las Granadinas",
    "capital": "Kingstown",
    "continent": "Americas",
    "flag": "🇻🇨",
    "population": 110000,
    "area": 389,
    "funFact": "Las películas de Piratas del Caribe fueron rodadas en gran parte en San Vicente y las Granadinas.",
    "latitude": 13.16,
    "longitude": -61.22
  },
  {
    "id": "Saint Lucia",
    "name": "Santa Lucía",
    "capital": "Castries",
    "continent": "Americas",
    "flag": "🇱🇨",
    "population": 180000,
    "area": 616,
    "funFact": "Santa Lucía ha producido más Premios Nobel per cápita que cualquier otro país del mundo, dos en total.",
    "latitude": 14.0,
    "longitude": -61.0
  },
  {
    "id": "São Tomé and Príncipe",
    "name": "Santo Tomé y Príncipe",
    "capital": "Santo Tomé",
    "continent": "Africa",
    "flag": "🇸🇹",
    "population": 230000,
    "area": 964,
    "funFact": "Santo Tomé y Príncipe se asienta sobre el ecuador y el meridiano de Greenwich, siendo el país más cercano al centro geométrico de la Tierra.",
    "latitude": 0.34,
    "longitude": 6.73
  },
  {
    "id": "Senegal",
    "name": "Senegal",
    "capital": "Dakar",
    "continent": "Africa",
    "flag": "🇸🇳",
    "population": 18000000,
    "area": 196722,
    "funFact": "El lago Rosa (Lac Rose) cerca de Dakar luce de color rosado gracias a las algas que prosperan en sus aguas extremadamente saladas.",
    "latitude": 14.72,
    "longitude": -17.47
  },
  {
    "id": "Serbia",
    "name": "Serbia",
    "capital": "Belgrado",
    "continent": "Europe",
    "flag": "🇷🇸",
    "population": 6800000,
    "area": 77474,
    "funFact": "Serbia es el mayor productor mundial de frambuesas, aportando aproximadamente el 30% del total global.",
    "latitude": 44.8,
    "longitude": 20.46
  },
  {
    "id": "Seychelles",
    "name": "Seychelles",
    "capital": "Victoria",
    "continent": "Africa",
    "flag": "🇸🇨",
    "population": 100000,
    "area": 455,
    "funFact": "Seychelles alberga la semilla más grande del mundo: la nuez de coco de mer, que puede llegar a pesar hasta 25 kg.",
    "latitude": -4.62,
    "longitude": 55.45
  },
  {
    "id": "Sierra Leone",
    "name": "Sierra Leona",
    "capital": "Freetown",
    "continent": "Africa",
    "flag": "🇸🇱",
    "population": 8600000,
    "area": 71740,
    "funFact": "El nombre Sierra Leona significa 'Montañas del León' en portugués, inspirado en el retumbar de sus colinas parecido al trueno.",
    "latitude": 8.48,
    "longitude": -13.23
  },
  {
    "id": "Singapore",
    "name": "Singapur",
    "capital": "Singapur",
    "continent": "Asia",
    "flag": "🇸🇬",
    "population": 5900000,
    "area": 728,
    "funFact": "Singapur es uno de los tres únicos estados-ciudad que sobreviven en el mundo, sin recursos naturales pero con uno de los PIB per cápita más altos.",
    "latitude": 1.35,
    "longitude": 103.82
  },
  {
    "id": "Syria",
    "name": "Siria",
    "capital": "Damasco",
    "continent": "Asia",
    "flag": "🇸🇾",
    "population": 21000000,
    "area": 185180,
    "funFact": "Damasco es considerada una de las ciudades habitadas de forma continua más antiguas del mundo, con una historia de más de 11.000 años.",
    "latitude": 33.51,
    "longitude": 36.29
  },
  {
    "id": "Somalia",
    "name": "Somalia",
    "capital": "Mogadiscio",
    "continent": "Africa",
    "flag": "🇸🇴",
    "population": 18000000,
    "area": 637657,
    "funFact": "Somalia tiene la costa más larga de cualquier país africano, con más de 3.300 km a lo largo del océano Índico.",
    "latitude": 2.05,
    "longitude": 45.34
  },
  {
    "id": "Sri Lanka",
    "name": "Sri Lanka",
    "capital": "Sri Jayawardenepura Kotte",
    "continent": "Asia",
    "flag": "🇱🇰",
    "population": 22000000,
    "area": 65610,
    "funFact": "Sri Lanka produce algunos de los mejores tés del mundo, el origen de la marca 'Ceilán' que todavía se usa a nivel global.",
    "latitude": 6.89,
    "longitude": 79.92
  },
  {
    "id": "South Africa",
    "name": "Sudáfrica",
    "capital": "Pretoria",
    "continent": "Africa",
    "flag": "🇿🇦",
    "population": 62000000,
    "area": 1221037,
    "funFact": "Sudáfrica es el único país que ha desmantelado voluntariamente su propio programa de armas nucleares.",
    "latitude": -25.75,
    "longitude": 28.23
  },
  {
    "id": "Sudan",
    "name": "Sudán",
    "capital": "Jartum",
    "continent": "Africa",
    "flag": "🇸🇩",
    "population": 48000000,
    "area": 1886068,
    "funFact": "Sudán tiene más pirámides antiguas que Egipto, más de 200, construidas por los reinos nubios.",
    "latitude": 15.55,
    "longitude": 32.53
  },
  {
    "id": "South Sudan",
    "name": "Sudán del Sur",
    "capital": "Juba",
    "continent": "Africa",
    "flag": "🇸🇸",
    "population": 11000000,
    "area": 619745,
    "funFact": "Sudán del Sur es el país reconocido internacionalmente más nuevo del mundo, que obtuvo la independencia en 2011.",
    "latitude": 4.85,
    "longitude": 31.6
  },
  {
    "id": "Sweden",
    "name": "Suecia",
    "capital": "Estocolmo",
    "continent": "Europe",
    "flag": "🇸🇪",
    "population": 10500000,
    "area": 450295,
    "funFact": "Suecia inventó la cerilla de seguridad, la cremallera y el marcapasos, entre otros inventos que cambiaron el mundo.",
    "latitude": 59.33,
    "longitude": 18.07
  },
  {
    "id": "Switzerland",
    "name": "Suiza",
    "capital": "Berna",
    "continent": "Europe",
    "flag": "🇨🇭",
    "population": 8700000,
    "area": 41285,
    "funFact": "Suiza tiene más de 1.500 lagos y alberga la sede de la Cruz Roja.",
    "latitude": 46.95,
    "longitude": 7.45
  },
  {
    "id": "Suriname",
    "name": "Surinam",
    "capital": "Paramaribo",
    "continent": "Americas",
    "flag": "🇸🇷",
    "population": 600000,
    "area": 163820,
    "funFact": "Surinam es el estado soberano más pequeño de América del Sur y tiene la mayor proporción de cubierta forestal de cualquier país del mundo.",
    "latitude": 5.87,
    "longitude": -55.17
  },
  {
    "id": "Thailand",
    "name": "Tailandia",
    "capital": "Bangkok",
    "continent": "Asia",
    "flag": "🇹🇭",
    "population": 72000000,
    "area": 513120,
    "funFact": "Tailandia es el mayor exportador mundial de arroz y el único país del Sudeste Asiático que nunca fue colonizado.",
    "latitude": 13.75,
    "longitude": 100.52
  },
  {
    "id": "Taiwan",
    "name": "Taiwán",
    "capital": "Taipéi",
    "continent": "Asia",
    "flag": "🇹🇼",
    "population": 23000000,
    "area": 36193,
    "funFact": "Taiwán inventó el té de burbujas (boba) en la década de 1980, que hoy se disfruta en más de 30 países de todo el mundo.",
    "latitude": 25.04,
    "longitude": 121.56
  },
  {
    "id": "Tanzania",
    "name": "Tanzania",
    "capital": "Dodoma",
    "continent": "Africa",
    "flag": "🇹🇿",
    "population": 67000000,
    "area": 945087,
    "funFact": "El monte Kilimanjaro es la montaña independiente más alta del mundo, con 5.895 metros.",
    "latitude": -6.18,
    "longitude": 35.74
  },
  {
    "id": "Tajikistan",
    "name": "Tayikistán",
    "capital": "Dushanbé",
    "continent": "Asia",
    "flag": "🇹🇯",
    "population": 10000000,
    "area": 143100,
    "funFact": "Más del 90% de Tayikistán está cubierto por montañas y alberga el glaciar Fedchenko, el glaciar no polar más largo del mundo.",
    "latitude": 38.56,
    "longitude": 68.77
  },
  {
    "id": "Timor-Leste",
    "name": "Timor Oriental",
    "capital": "Dili",
    "continent": "Asia",
    "flag": "🇹🇱",
    "population": 1400000,
    "area": 14874,
    "funFact": "Timor Oriental es una de las naciones más jóvenes del mundo, que obtuvo la independencia en 2002 tras siglos de dominio portugués e indonesio.",
    "latitude": -8.56,
    "longitude": 125.58
  },
  {
    "id": "Togo",
    "name": "Togo",
    "capital": "Lomé",
    "continent": "Africa",
    "flag": "🇹🇬",
    "population": 9000000,
    "area": 56785,
    "funFact": "El vudú es una religión reconocida en Togo y el 10 de enero es festivo nacional: el Día Nacional del Vudú.",
    "latitude": 6.14,
    "longitude": 1.22
  },
  {
    "id": "Tonga",
    "name": "Tonga",
    "capital": "Nukualofa",
    "continent": "Oceania",
    "flag": "🇹🇴",
    "population": 100000,
    "area": 747,
    "funFact": "Tonga es la única nación isleña del Pacífico que nunca fue formalmente colonizada por una potencia europea.",
    "latitude": -21.14,
    "longitude": -175.22
  },
  {
    "id": "Trinidad and Tobago",
    "name": "Trinidad y Tobago",
    "capital": "Puerto España",
    "continent": "Americas",
    "flag": "🇹🇹",
    "population": 1400000,
    "area": 5130,
    "funFact": "Trinidad y Tobago es el lugar de nacimiento del steel pan, el único instrumento acústico inventado en el siglo XX.",
    "latitude": 10.65,
    "longitude": -61.52
  },
  {
    "id": "Tunisia",
    "name": "Túnez",
    "capital": "Túnez",
    "continent": "Africa",
    "flag": "🇹🇳",
    "population": 12000000,
    "area": 163610,
    "funFact": "Túnez fue el hogar de la antigua Cartago, una de las mayores potencias del mundo mediterráneo.",
    "latitude": 36.82,
    "longitude": 10.17
  },
  {
    "id": "Turkmenistan",
    "name": "Turkmenistán",
    "capital": "Asjabad",
    "continent": "Asia",
    "flag": "🇹🇲",
    "population": 6100000,
    "area": 488100,
    "funFact": "La 'Puerta del Infierno', un cráter de gas natural en Turkmenistán, lleva ardiendo continuamente desde 1971.",
    "latitude": 37.95,
    "longitude": 58.39
  },
  {
    "id": "Turkey",
    "name": "Turquía",
    "capital": "Ankara",
    "continent": "Asia",
    "flag": "🇹🇷",
    "population": 85000000,
    "area": 783562,
    "funFact": "Turquía abarca dos continentes —Europa y Asia— e Estambul es la única ciudad del mundo que se extiende por dos continentes.",
    "latitude": 39.93,
    "longitude": 32.85
  },
  {
    "id": "Tuvalu",
    "name": "Tuvalu",
    "capital": "Funafuti",
    "continent": "Oceania",
    "flag": "🇹🇻",
    "population": 11000,
    "area": 26,
    "funFact": "Tuvalu es tan llano que podría convertirse en el primer país completamente sumergido por el aumento del nivel del mar debido al cambio climático.",
    "latitude": -8.52,
    "longitude": 179.2
  },
  {
    "id": "Ukraine",
    "name": "Ucrania",
    "capital": "Kiev",
    "continent": "Europe",
    "flag": "🇺🇦",
    "population": 37000000,
    "area": 603550,
    "funFact": "Ucrania tiene el mayor territorio de cualquier país situado íntegramente en Europa y fue conocida durante mucho tiempo como el granero de Europa.",
    "latitude": 50.45,
    "longitude": 30.52
  },
  {
    "id": "Uganda",
    "name": "Uganda",
    "capital": "Kampala",
    "continent": "Africa",
    "flag": "🇺🇬",
    "population": 49000000,
    "area": 241038,
    "funFact": "Uganda alberga aproximadamente la mitad de la población mundial restante de gorilas de montaña.",
    "latitude": 0.32,
    "longitude": 32.58
  },
  {
    "id": "Uruguay",
    "name": "Uruguay",
    "capital": "Montevideo",
    "continent": "Americas",
    "flag": "🇺🇾",
    "population": 3500000,
    "area": 176215,
    "funFact": "Uruguay fue el primer país del mundo en legalizar el cultivo, la venta y el consumo de cannabis, en 2013.",
    "latitude": -34.9,
    "longitude": -56.19
  },
  {
    "id": "Uzbekistan",
    "name": "Uzbekistán",
    "capital": "Taskent",
    "continent": "Asia",
    "flag": "🇺🇿",
    "population": 36000000,
    "area": 447400,
    "funFact": "Uzbekistán era una encrucijada de la antigua Ruta de la Seda, y Samarcanda es una de las ciudades habitadas más antiguas de Asia Central.",
    "latitude": 41.3,
    "longitude": 69.27
  },
  {
    "id": "Vanuatu",
    "name": "Vanuatu",
    "capital": "Port Vila",
    "continent": "Oceania",
    "flag": "🇻🇺",
    "population": 330000,
    "area": 12189,
    "funFact": "Vanuatu ha sido clasificado como el país más feliz de la Tierra por el Índice de Planeta Feliz.",
    "latitude": -17.74,
    "longitude": 168.32
  },
  {
    "id": "Venezuela",
    "name": "Venezuela",
    "capital": "Caracas",
    "continent": "Americas",
    "flag": "🇻🇪",
    "population": 30000000,
    "area": 912050,
    "funFact": "Venezuela posee las mayores reservas de petróleo probadas del mundo y alberga el Salto Ángel, la cascada ininterrumpida más alta del mundo.",
    "latitude": 10.48,
    "longitude": -66.88
  },
  {
    "id": "Vietnam",
    "name": "Vietnam",
    "capital": "Hanói",
    "continent": "Asia",
    "flag": "🇻🇳",
    "population": 98000000,
    "area": 331212,
    "funFact": "Vietnam es el segundo mayor productor mundial de café, después de Brasil.",
    "latitude": 21.03,
    "longitude": 105.85
  },
  {
    "id": "Yemen",
    "name": "Yemen",
    "capital": "Saná",
    "continent": "Asia",
    "flag": "🇾🇪",
    "population": 34000000,
    "area": 527968,
    "funFact": "Yemen alberga la isla de Socotra, llamada a veces 'las Galápagos del océano Índico' por su fauna de aspecto extraterrestre y única.",
    "latitude": 15.35,
    "longitude": 44.21
  },
  {
    "id": "Djibouti",
    "name": "Yibuti",
    "capital": "Yibuti",
    "continent": "Africa",
    "flag": "🇩🇯",
    "population": 1000000,
    "area": 23200,
    "funFact": "El lago Assal se encuentra a 155 m bajo el nivel del mar, el punto más bajo de África y el tercero más bajo de la Tierra.",
    "latitude": 11.59,
    "longitude": 43.15
  },
  {
    "id": "Zambia",
    "name": "Zambia",
    "capital": "Lusaka",
    "continent": "Africa",
    "flag": "🇿🇲",
    "population": 20000000,
    "area": 752612,
    "funFact": "Las cataratas Victoria, en la frontera entre Zambia y Zimbabue, son las cataratas más grandes del mundo por superficie total.",
    "latitude": -15.42,
    "longitude": 28.28
  },
  {
    "id": "Zimbabwe",
    "name": "Zimbabue",
    "capital": "Harare",
    "continent": "Africa",
    "flag": "🇿🇼",
    "population": 16000000,
    "area": 390757,
    "funFact": "El Gran Zimbabue, ruinas de una ciudad medieval construida con piedra sin mortero, dio nombre al país.",
    "latitude": -17.83,
    "longitude": 31.05
  }
]